{
"type": "FeatureCollection",
"name": "Fire_Stations",
"crs": { "type": "name", "properties": { "name": "urn:ogc:def:crs:OGC:1.3:CRS84" } },
"features": [
{ "type": "Feature", "properties": { "OBJECTID": 1, "FIRE_STN_NAME": "EPPING", "FIRE_STN_CODE": "EPG", "FIRE_STN_CLASS": "COMMUNITY STATION" }, "geometry": { "type": "Point", "coordinates": [ 18.542860511648094, -33.927541167726162 ] } },
{ "type": "Feature", "properties": { "OBJECTID": 2, "FIRE_STN_NAME": "MITCHELLS PLAIN", "FIRE_STN_CODE": "MPN", "FIRE_STN_CLASS": "DIVISIONAL HQ" }, "geometry": { "type": "Point", "coordinates": [ 18.593141387301021, -34.043479795156031 ] } },
{ "type": "Feature", "properties": { "OBJECTID": 3, "FIRE_STN_NAME": "SEA POINT", "FIRE_STN_CODE": "SPT", "FIRE_STN_CLASS": "COMMUNITY STATION" }, "geometry": { "type": "Point", "coordinates": [ 18.386876153631924, -33.919089844753849 ] } },
{ "type": "Feature", "properties": { "OBJECTID": 4, "FIRE_STN_NAME": "ROELAND STREET", "FIRE_STN_CODE": "RDS", "FIRE_STN_CLASS": "DISTRICT HQ - WEST" }, "geometry": { "type": "Point", "coordinates": [ 18.425124761089787, -33.933298448528305 ] } },
{ "type": "Feature", "properties": { "OBJECTID": 5, "FIRE_STN_NAME": "SALT RIVER", "FIRE_STN_CODE": "SLR", "FIRE_STN_CLASS": "COMMUNITY STATION" }, "geometry": { "type": "Point", "coordinates": [ 18.461388098390813, -33.93533136556173 ] } },
{ "type": "Feature", "properties": { "OBJECTID": 6, "FIRE_STN_NAME": "WYNBERG", "FIRE_STN_CODE": "WBG", "FIRE_STN_CLASS": "COMMUNITY STATION" }, "geometry": { "type": "Point", "coordinates": [ 18.478464812001015, -34.003786659515654 ] } },
{ "type": "Feature", "properties": { "OBJECTID": 7, "FIRE_STN_NAME": "LAKESIDE", "FIRE_STN_CODE": "LKE", "FIRE_STN_CLASS": "DIVISIONAL HQ" }, "geometry": { "type": "Point", "coordinates": [ 18.457725427486903, -34.086981111192699 ] } },
{ "type": "Feature", "properties": { "OBJECTID": 8, "FIRE_STN_NAME": "OTTERY", "FIRE_STN_CODE": "OTY", "FIRE_STN_CLASS": "DIVISIONAL HQ" }, "geometry": { "type": "Point", "coordinates": [ 18.521429138996275, -34.016466290212534 ] } },
{ "type": "Feature", "properties": { "OBJECTID": 9, "FIRE_STN_NAME": "CONSTANTIA", "FIRE_STN_CODE": "CTA", "FIRE_STN_CLASS": "COMMUNITY STATION" }, "geometry": { "type": "Point", "coordinates": [ 18.442400315622589, -34.021056212844691 ] } },
{ "type": "Feature", "properties": { "OBJECTID": 10, "FIRE_STN_NAME": "BELLVILLE", "FIRE_STN_CODE": "BVL", "FIRE_STN_CLASS": "DISTRICT HQ - NORTH" }, "geometry": { "type": "Point", "coordinates": [ 18.638147776005059, -33.905532486712943 ] } },
{ "type": "Feature", "properties": { "OBJECTID": 11, "FIRE_STN_NAME": "MILNERTON", "FIRE_STN_CODE": "MIL", "FIRE_STN_CLASS": "DIVISIONAL HQ" }, "geometry": { "type": "Point", "coordinates": [ 18.517433114548663, -33.852411350924186 ] } },
{ "type": "Feature", "properties": { "OBJECTID": 12, "FIRE_STN_NAME": "GOODWOOD", "FIRE_STN_CODE": "GWD", "FIRE_STN_CLASS": "FIRE SERVICE HEAD OFFICE" }, "geometry": { "type": "Point", "coordinates": [ 18.563169372170336, -33.895138580699538 ] } },
{ "type": "Feature", "properties": { "OBJECTID": 13, "FIRE_STN_NAME": "DURBANVILLE", "FIRE_STN_CODE": "DBV", "FIRE_STN_CLASS": "COMMUNITY STATION" }, "geometry": { "type": "Point", "coordinates": [ 18.65228420514277, -33.833871289997326 ] } },
{ "type": "Feature", "properties": { "OBJECTID": 14, "FIRE_STN_NAME": "KUILSRIVER", "FIRE_STN_CODE": "KLR", "FIRE_STN_CLASS": "COMMUNITY STATION" }, "geometry": { "type": "Point", "coordinates": [ 18.682386182057872, -33.936956792068315 ] } },
{ "type": "Feature", "properties": { "OBJECTID": 15, "FIRE_STN_NAME": "KRAAIFONTEIN", "FIRE_STN_CODE": "KFN", "FIRE_STN_CLASS": "COMMUNITY STATION" }, "geometry": { "type": "Point", "coordinates": [ 18.704889206576393, -33.841899032029005 ] } },
{ "type": "Feature", "properties": { "OBJECTID": 16, "FIRE_STN_NAME": "SOMERSET WEST", "FIRE_STN_CODE": "SWT", "FIRE_STN_CLASS": "COMMUNITY STATION" }, "geometry": { "type": "Point", "coordinates": [ 18.843268255094561, -34.085944728631361 ] } },
{ "type": "Feature", "properties": { "OBJECTID": 17, "FIRE_STN_NAME": "FISH HOEK", "FIRE_STN_CODE": "FHK", "FIRE_STN_CLASS": "COMMUNITY STATION" }, "geometry": { "type": "Point", "coordinates": [ 18.425815796043587, -34.136748644076732 ] } },
{ "type": "Feature", "properties": { "OBJECTID": 18, "FIRE_STN_NAME": "STRAND", "FIRE_STN_CODE": "SND", "FIRE_STN_CLASS": "DISTRICT HQ - EAST" }, "geometry": { "type": "Point", "coordinates": [ 18.844929552154884, -34.117161834420308 ] } },
{ "type": "Feature", "properties": { "OBJECTID": 19, "FIRE_STN_NAME": "SIMONSTOWN", "FIRE_STN_CODE": "STN", "FIRE_STN_CLASS": "COMMUNITY STATION" }, "geometry": { "type": "Point", "coordinates": [ 18.424526785215473, -34.183296501987357 ] } },
{ "type": "Feature", "properties": { "OBJECTID": 20, "FIRE_STN_NAME": "ATLANTIS", "FIRE_STN_CODE": "ATS", "FIRE_STN_CLASS": "COMMUNITY STATION" }, "geometry": { "type": "Point", "coordinates": [ 18.485241235417011, -33.585023565936275 ] } },
{ "type": "Feature", "properties": { "OBJECTID": 21, "FIRE_STN_NAME": "BROOKLYN", "FIRE_STN_CODE": "BKN", "FIRE_STN_CLASS": "COMMUNITY STATION" }, "geometry": { "type": "Point", "coordinates": [ 18.480540376992636, -33.915965177924051 ] } },
{ "type": "Feature", "properties": { "OBJECTID": 22, "FIRE_STN_NAME": "GUGULETU", "FIRE_STN_CODE": "GTU", "FIRE_STN_CLASS": "COMMUNITY STATION" }, "geometry": { "type": "Point", "coordinates": [ 18.565895927836046, -34.001130512649354 ] } },
{ "type": "Feature", "properties": { "OBJECTID": 23, "FIRE_STN_NAME": "MFULENI", "FIRE_STN_CODE": "MFU", "FIRE_STN_CLASS": "COMMUNITY STATION" }, "geometry": { "type": "Point", "coordinates": [ 18.687532950480286, -34.002661336691666 ] } },
{ "type": "Feature", "properties": { "OBJECTID": 24, "FIRE_STN_NAME": "KHAYELITSHA", "FIRE_STN_CODE": "KHA", "FIRE_STN_CLASS": "COMMUNITY STATION" }, "geometry": { "type": "Point", "coordinates": [ 18.681530137513153, -34.047205109960437 ] } },
{ "type": "Feature", "properties": { "OBJECTID": 25, "FIRE_STN_NAME": "BELHAR", "FIRE_STN_CODE": "BHR", "FIRE_STN_CLASS": "DIVISIONAL HQ" }, "geometry": { "type": "Point", "coordinates": [ 18.635391178289257, -33.951888775622507 ] } },
{ "type": "Feature", "properties": { "OBJECTID": 26, "FIRE_STN_NAME": "LANSDOWNE ROAD", "FIRE_STN_CODE": "LSD", "FIRE_STN_CLASS": "COMMUNITY STATION" }, "geometry": { "type": "Point", "coordinates": [ 18.653292979070287, -34.015589523222559 ] } },
{ "type": "Feature", "properties": { "OBJECTID": 27, "FIRE_STN_NAME": "MACASSAR", "FIRE_STN_CODE": "MCR", "FIRE_STN_CLASS": "COMMUNITY STATION" }, "geometry": { "type": "Point", "coordinates": [ 18.763858268184709, -34.062109063524865 ] } },
{ "type": "Feature", "properties": { "OBJECTID": 28, "FIRE_STN_NAME": "HOUT BAY", "FIRE_STN_CODE": "HTB", "FIRE_STN_CLASS": "COMMUNITY STATION" }, "geometry": { "type": "Point", "coordinates": [ 18.357044328954213, -34.03128548013823 ] } },
{ "type": "Feature", "properties": { "OBJECTID": 29, "FIRE_STN_NAME": "BRACKENFELL", "FIRE_STN_CODE": "BFL", "FIRE_STN_CLASS": "COMMUNITY STATION" }, "geometry": { "type": "Point", "coordinates": [ 18.707529090975182, -33.87802413085187 ] } },
{ "type": "Feature", "properties": { "OBJECTID": 30, "FIRE_STN_NAME": "MELKBOSSTRAND", "FIRE_STN_CODE": "MKS", "FIRE_STN_CLASS": "COMMUNITY STATION" }, "geometry": { "type": "Point", "coordinates": [ 18.445099999740229, -33.732200000415837 ] } },
{ "type": "Feature", "properties": { "OBJECTID": 31, "FIRE_STN_NAME": "KOMMETJIE ROAD ", "FIRE_STN_CODE": "MSP", "FIRE_STN_CLASS": "COMMUNITY STATION" }, "geometry": { "type": "Point", "coordinates": [ 18.378105848383829, -34.134363085387363 ] } },
{ "type": "Feature", "properties": { "OBJECTID": 32, "FIRE_STN_NAME": "SIR LOWRYS PASS", "FIRE_STN_CODE": "SLP", "FIRE_STN_CLASS": "COMMUNITY STATION" }, "geometry": { "type": "Point", "coordinates": [ 18.878343724052659, -34.106586121413812 ] } }
]
}
